[
  {
    "id": "atlanta-stadium",
    "name": "Mercedes-Benz Stadium",
    "city": "Atlanta",
    "state": "Georgia",
    "country": "United States",
    "lat": 33.7554,
    "lng": -84.4009,
    "capacity": 71000,
    "status": "ready",
    "riskLevel": "medium"
  },
  {
    "id": "boston-stadium",
    "name": "Gillette Stadium",
    "city": "Foxborough",
    "state": "Massachusetts",
    "country": "United States",
    "lat": 42.0909,
    "lng": -71.2643,
    "capacity": 65878,
    "status": "ready",
    "riskLevel": "medium"
  },
  {
    "id": "dallas-stadium",
    "name": "AT&T Stadium",
    "city": "Arlington",
    "state": "Texas",
    "country": "United States",
    "lat": 32.7473,
    "lng": -97.0945,
    "capacity": 80000,
    "status": "ready",
    "riskLevel": "medium"
  },
  {
    "id": "guadalajara-stadium",
    "name": "Estadio Akron",
    "city": "Zapopan",
    "state": "Jalisco",
    "country": "Mexico",
    "lat": 20.6829,
    "lng": -103.4623,
    "capacity": 49850,
    "status": "ready",
    "riskLevel": "medium"
  },
  {
    "id": "houston-stadium",
    "name": "NRG Stadium",
    "city": "Houston",
    "state": "Texas",
    "country": "United States",
    "lat": 29.6847,
    "lng": -95.4107,
    "capacity": 72220,
    "status": "ready",
    "riskLevel": "medium"
  },
  {
    "id": "kansas-city-stadium",
    "name": "Arrowhead Stadium",
    "city": "Kansas City",
    "state": "Missouri",
    "country": "United States",
    "lat": 39.0489,
    "lng": -94.4839,
    "capacity": 76416,
    "status": "ready",
    "riskLevel": "medium"
  },
  {
    "id": "los-angeles-stadium",
    "name": "SoFi Stadium",
    "city": "Inglewood",
    "state": "California",
    "country": "United States",
    "lat": 33.9535,
    "lng": -118.3392,
    "capacity": 70240,
    "status": "ready",
    "riskLevel": "high"
  },
  {
    "id": "miami-stadium",
    "name": "Hard Rock Stadium",
    "city": "Miami Gardens",
    "state": "Florida",
    "country": "United States",
    "lat": 25.958,
    "lng": -80.2389,
    "capacity": 64767,
    "status": "ready",
    "riskLevel": "high"
  },
  {
    "id": "monterrey-stadium",
    "name": "Estadio BBVA",
    "city": "Guadalupe",
    "state": "Nuevo León",
    "country": "Mexico",
    "lat": 25.669,
    "lng": -100.2446,
    "capacity": 53500,
    "status": "ready",
    "riskLevel": "medium"
  },
  {
    "id": "new-york-new-jersey-stadium",
    "name": "MetLife Stadium",
    "city": "East Rutherford",
    "state": "New Jersey",
    "country": "United States",
    "lat": 40.8135,
    "lng": -74.0745,
    "capacity": 82500,
    "status": "ready",
    "riskLevel": "high"
  },
  {
    "id": "mexico-city-stadium",
    "name": "Estadio Azteca",
    "city": "Mexico City",
    "state": "CDMX",
    "country": "Mexico",
    "lat": 19.3029,
    "lng": -99.1505,
    "capacity": 87523,
    "status": "ready",
    "riskLevel": "high"
  },
  {
    "id": "philadelphia-stadium",
    "name": "Lincoln Financial Field",
    "city": "Philadelphia",
    "state": "Pennsylvania",
    "country": "United States",
    "lat": 39.9008,
    "lng": -75.1675,
    "capacity": 67594,
    "status": "ready",
    "riskLevel": "medium"
  },
  {
    "id": "san-francisco-bay-stadium",
    "name": "Levi's Stadium",
    "city": "Santa Clara",
    "state": "California",
    "country": "United States",
    "lat": 37.403,
    "lng": -121.97,
    "capacity": 68500,
    "status": "ready",
    "riskLevel": "medium"
  },
  {
    "id": "seattle-stadium",
    "name": "Lumen Field",
    "city": "Seattle",
    "state": "Washington",
    "country": "United States",
    "lat": 47.5952,
    "lng": -122.3316,
    "capacity": 69000,
    "status": "ready",
    "riskLevel": "medium"
  },
  {
    "id": "toronto-stadium",
    "name": "BMO Field",
    "city": "Toronto",
    "state": "Ontario",
    "country": "Canada",
    "lat": 43.6332,
    "lng": -79.4187,
    "capacity": 45000,
    "status": "caution",
    "riskLevel": "medium"
  },
  {
    "id": "vancouver-stadium",
    "name": "BC Place",
    "city": "Vancouver",
    "state": "British Columbia",
    "country": "Canada",
    "lat": 49.2768,
    "lng": -123.1118,
    "capacity": 54500,
    "status": "ready",
    "riskLevel": "medium"
  }
]